id,name,type,lat,lon,opentime,endtime,price,recommendmintime,recommendmaxtime
0,长隆野生动物世界,游乐园/体育娱乐,23.007944,113.321711,09:30,18:00,300.0,2.5,4.0
1,广州长隆度假区,游乐园/体育娱乐,23.006399,113.330527,00:00,24:00,0.0,2.5,4.0
2,广州塔,人文景观,23.112223,113.331084,09:30,22:30,149.0,0.5,1.5
3,广州长隆国际大马戏,游乐园/体育娱乐,23.009036,113.337965,15:00,21:00,350.0,1.0,2.0
4,长隆欢乐世界,游乐园/体育娱乐,23.00481,113.33685,10:00,18:00,250.0,2.5,4.0
5,珠江夜游,游乐园/体育娱乐,23.115119,113.294879,09:00,22:30,98.0,1.0,2.0
6,长隆水上乐园,游乐园/体育娱乐,23.007665,113.330724,10:00,21:30,69.0,2.0,3.0
7,广东科学中心,游乐园/体育娱乐,23.045368,113.369589,09:30,16:30,60.0,2.0,3.5
8,陈家祠,历史古迹,23.132609,113.251995,09:00,18:00,0.0,3.0,3.5
9,长隆飞鸟乐园,游乐园/体育娱乐,23.031355,113.284204,09:30,18:00,100.0,1.5,2.0
10,沙面,历史古迹,23.112627,113.251119,00:00,24:00,0.0,0.5,2.0
11,广东省博物馆,博物馆/纪念馆,23.120537,113.33296,00:00,24:00,0.0,2.5,4.0
12,广州动物园,游乐园/体育娱乐,23.146478,113.311833,08:00,18:00,0.0,3.0,4.0
13,正佳广场商贸旅游区,商业街区,23.137807,113.333654,10:00,22:00,0.0,3.0,3.5
14,正佳极地海洋世界,游乐园/体育娱乐,23.137758,113.332856,10:00,22:00,125.0,0.5,2.0
15,南越王博物院(王墓展区),博物馆/纪念馆,23.143943,113.267507,09:00,17:30,0.0,1.0,2.5
16,中山纪念堂,红色景点,23.139129,113.271126,09:00,17:30,8.0,2.0,3.5
17,大佛古寺,历史古迹,23.128808,113.274392,06:00,21:00,0.0,2.5,3.0
18,白云山,自然风光,23.190623,113.306556,00:00,24:00,0.0,1.0,2.0
19,广州热雪奇迹,游乐园/体育娱乐,23.432566,113.23773,10:30,20:30,198.0,1.5,3.0
20,广州融创文旅城,游乐园/体育娱乐,23.435167,113.241125,00:00,24:00,0.0,1.0,2.0
21,中国科学院华南国家植物园,公园,23.188836,113.372578,07:30,17:30,19.9,0.5,1.0
22,北京路步行街,商业街区,23.127945,113.275422,00:00,24:00,0.0,0.5,2.0
23,珠江夜游天字码头,游乐园/体育娱乐,23.120996,113.277576,09:00,22:30,98.0,2.5,4.0
24,越秀公园,公园,23.14608,113.272266,00:00,22:00,0.0,0.5,2.0
25,永庆坊,商业街区,23.120549,113.244008,00:00,24:00,0.0,1.0,2.5
26,西关永庆坊旅游区,文化旅游区,23.12075,113.244039,00:00,24:00,0.0,2.5,4.0
27,沙湾古镇,历史古迹,22.909439,113.340932,09:00,17:30,30.0,1.5,3.0
28,上下九步行街,商业街区,23.119805,113.252523,00:00,24:00,0.0,3.0,4.0
29,广州圣心大教堂,历史古迹,23.120805,113.266558,09:00,11:00,0.0,2.0,2.5
30,广州融创乐园,游乐园/体育娱乐,23.435471,113.246764,11:00,18:00,208.0,3.0,4.0
31,白水寨风景名胜区,自然风光,23.599255,113.771154,08:30,17:30,54.0,1.0,1.5
32,岭南印象园,文化旅游区,23.043105,113.412924,09:30,18:00,54.0,2.5,4.0
33,黄埔军校旧址纪念馆,博物馆/纪念馆,23.092368,113.431318,09:00,17:00,0.0,2.0,2.5
34,宝墨园,文化旅游区,22.900712,113.300935,08:30,17:00,48.0,2.0,2.5
35,南沙天后宫,人文景观,22.762606,113.625188,08:30,17:00,14.9,1.0,1.5
36,森林海嬉水乐园,游乐园/体育娱乐,23.573071,113.770945,10:00,21:00,0.0,1.5,3.0
37,广州博物馆,博物馆/纪念馆,23.143971,113.27211,09:00,18:00,0.0,1.5,3.0
38,珠江夜游广州塔财富码头,游乐园/体育娱乐,23.113208,113.333565,09:00,22:30,108.0,1.5,3.0
39,珠江夜游大沙头码头,游乐园/体育娱乐,23.118706,113.291887,09:00,22:30,93.0,1.5,3.0
40,余荫山房,历史古迹,23.017654,113.402024,08:00,18:00,18.0,1.0,2.5
41,莲花山旅游区,文化旅游区,22.993236,113.509893,07:00,17:00,54.0,1.0,1.5
42,广州海洋馆,游乐园/体育娱乐,23.149705,113.311261,09:30,18:30,160.0,3.0,3.5
43,海心沙亚运公园,公园,23.117202,113.331179,07:00,23:00,0.0,1.0,2.0
44,花城广场,商业街区,23.125752,113.331127,00:00,24:00,0.0,0.5,1.0
45,正佳雨林生态植物园,公园,23.137906,113.333565,10:00,22:00,98.0,3.0,3.5
46,广州都市双层观光巴士（粤陶巴）,游乐园/体育娱乐,23.113765,113.31604,09:00,17:00,0.0,2.0,2.5
47,广州兰圃,公园,23.149913,113.266761,00:00,18:00,8.0,1.5,3.0
48,海珠国家湿地公园,公园,23.072321,113.343072,09:00,19:00,18.0,2.5,3.0
49,正佳自然科学博物馆,博物馆/纪念馆,23.137456,113.334356,10:00,20:00,40.0,2.5,4.0
50,千泷沟大瀑布,自然风光,23.713006,113.865891,09:00,18:00,58.0,0.5,1.0
51,南越王博物院(王宫展区),历史古迹,23.1331,113.276352,09:00,17:30,0.0,2.0,3.0
52,广州塔阿尔法探索乐园,游乐园/体育娱乐,23.112223,113.331084,15:00,22:00,378.0,1.5,3.0
53,正佳企鹅冰雪世界,游乐园/体育娱乐,23.137465,113.333506,11:00,20:00,158.0,1.0,1.5
54,珠江夜游海心沙西区码头,游乐园/体育娱乐,23.116211,113.330131,16:00,22:30,0.0,2.5,3.0
55,天人山水大地艺术园,游乐园/体育娱乐,23.440908,113.594523,10:00,19:00,58.0,0.5,1.0
56,珠江夜游广州塔·中大码头,人文景观,23.109558,113.306007,09:00,22:30,0.0,1.0,2.0
57,海心桥,游乐园/体育娱乐,23.113958,113.325485,07:00,23:00,0.0,2.0,2.5
58,广州十三行博物馆,博物馆/纪念馆,23.114945,113.257572,09:00,17:30,0.0,2.0,2.5
59,荔枝湾涌,人文景观,23.125161,113.241536,00:00,24:00,0.0,0.5,1.0
60,石门国家森林公园,公园,23.631008,113.788742,09:00,19:00,40.0,1.0,2.0
61,太古仓,商业街区,23.094555,113.259118,00:00,24:00,0.0,2.0,3.5
62,粤剧艺术博物馆,博物馆/纪念馆,23.121247,113.244769,09:00,21:00,0.0,2.0,3.0
63,大丰门景区,自然风光,23.589925,113.822522,09:00,17:30,48.0,2.5,3.0
64,广州荔枝湾游船,游乐园/体育娱乐,23.126744,113.240948,09:30,17:00,0.0,0.5,1.5
65,李小龙祖居,历史古迹,23.121135,113.243461,08:30,21:30,0.0,0.5,1.5
66,帷幕开啦（广州塔）蜡像馆,人文景观,23.112175,113.331955,10:00,22:30,98.0,0.5,1.0
67,幻境空间元宇宙体验馆(广州店),游乐园/体育娱乐,23.139917,113.328022,10:00,22:00,59.9,2.5,4.0
68,天鹿湖森林公园,公园,23.228718,113.426335,09:00,17:00,5.0,2.0,3.5
69,飞越丛林探险乐园,游乐园/体育娱乐,23.229421,113.432816,09:00,17:30,65.0,0.5,2.0
70,珠江新城,商业街区,23.124903,113.339912,00:00,24:00,0.0,3.0,3.5
71,荔湾湖公园,公园,23.126903,113.239395,00:00,24:00,0.0,2.0,3.5
72,珠江夜游西堤码头,人文景观,23.113222,113.258634,16:00,22:30,0.0,0.5,1.0
73,广州融创体育世界,游乐园/体育娱乐,23.431966,113.240339,13:00,19:00,0.0,2.0,2.5
74,中山大学（南校区）,大学校园,23.102915,113.304864,09:00,18:00,0.0,3.0,4.0
75,正佳科学馆·正佳天文馆,游乐园/体育娱乐,23.138001,113.333422,10:00,20:00,0.0,1.0,1.5
76,云台花园,公园,23.163796,113.29808,00:00,18:00,0.0,2.0,3.0
77,孙中山大元帅府纪念馆,博物馆/纪念馆,23.116337,113.285651,08:30,17:30,0.0,2.0,3.0
78,光孝寺,历史古迹,23.135332,113.263078,08:30,16:30,0.0,2.0,2.5
79,南沙湿地,自然风光,22.617149,113.654605,09:00,17:00,36.0,3.0,4.0
80,南沙游艇会,游乐园/体育娱乐,22.783418,113.608285,09:00,21:00,0.0,2.5,4.0
81,流溪河国家森林公园,自然风光,23.756617,113.789932,08:00,17:00,20.0,0.5,1.0
82,九龙湖度假区,游乐园/体育娱乐,23.480803,113.419942,00:00,24:00,0.0,2.0,3.0
83,黄金海岸水上乐园,游乐园/体育娱乐,23.110856,113.299853,00:00,24:00,0.0,1.5,3.0
84,白云飞索,游乐园/体育娱乐,23.191107,113.311189,10:30,17:30,0.0,1.5,2.0
85,广州市文化馆(新馆),美术馆/艺术馆,23.081787,113.33519,09:00,17:30,0.0,2.5,4.0
86,流花湖公园,公园,23.143355,113.257705,00:00,22:00,0.0,2.5,4.0
87,圆玄道观,人文景观,23.405862,113.186642,08:00,17:00,15.0,1.0,1.5
88,南汉二陵博物馆,博物馆/纪念馆,23.053533,113.390497,09:00,17:30,0.0,0.5,1.0
89,黄花岗七十二烈士墓,红色景点,23.146964,113.300857,06:30,21:00,0.0,1.0,2.0
90,粤海关博物馆,博物馆/纪念馆,23.113315,113.257528,09:00,16:00,0.0,1.0,2.0
91,广州图书馆,人文景观,23.122229,113.331974,09:00,21:00,0.0,2.5,4.0
92,花都香草世界,游乐园/体育娱乐,23.467507,113.267391,09:00,18:00,65.0,2.0,2.5
93,猎德大桥,人文景观,23.117739,113.340408,00:00,24:00,0.0,2.5,4.0
94,广州好普艺术博物馆,博物馆/纪念馆,23.1741,113.464,09:00,18:00,0.0,1.0,2.0
95,二沙岛,公园,23.115879,113.311347,00:00,24:00,0.0,1.5,2.0
96,正佳广场,商业街区,23.137887,113.333548,10:00,22:00,0.0,0.5,1.5
97,白云山索道,游乐园/体育娱乐,23.163525,113.302034,09:00,18:00,0.0,1.5,2.0
98,空中缆车,游乐园/体育娱乐,23.006068,113.324758,10:30,17:30,0.0,1.0,2.5
99,TIT创意园,人文景观,23.105729,113.33187,00:00,21:00,0.0,1.0,2.0
100,广州市都城隍庙,历史古迹,23.132731,113.2775,00:00,17:00,0.0,1.0,2.0
101,世间香境·七溪地,文化旅游区,23.536018,113.396561,09:00,18:00,0.0,2.0,3.0
102,长洲岛,自然风光,23.082388,113.442626,00:00,24:00,0.0,0.5,1.0
103,南海神庙,历史古迹,23.087583,113.504607,09:00,17:00,20.0,1.0,2.5
104,广州地铁博物馆,博物馆/纪念馆,23.101949,113.389465,10:00,16:00,0.0,1.0,2.5
105,黄埔古港,历史古迹,23.095461,113.396026,00:00,24:00,0.0,3.0,4.0
106,溪头旅游村,文化旅游区,23.719128,113.873632,00:00,24:00,100.0,1.5,3.0
107,大浪淘沙(冼村路店),商业街区,23.12225,113.334984,00:00,24:00,0.0,0.5,2.0
108,头号玩家广东广州跳伞基地,游乐园/体育娱乐,23.141299,113.349842,08:00,23:30,0.0,2.0,3.0
109,辛亥革命纪念馆,博物馆/纪念馆,23.078246,113.426816,09:00,17:00,0.0,3.0,3.5
110,龙津西西关大屋区,历史古迹,23.125071,113.242277,09:00,17:30,0.0,0.5,2.0
111,广州水上巴士,游乐园/体育娱乐,23.112249,113.246822,07:00,18:30,0.0,3.0,4.0
112,广州市儿童公园,公园,23.190304,113.278107,08:00,18:00,0.0,2.0,3.0
113,海鸥岛,游乐园/体育娱乐,22.97941,113.531663,00:00,24:00,0.0,2.0,2.5
114,五羊石雕,人文景观,23.144145,113.269391,00:00,22:00,0.0,0.5,1.5
115,广州铁路博物馆,博物馆/纪念馆,23.117024,113.238448,09:00,16:00,0.0,0.5,1.5
116,南沙水鸟世界生态公园,公园,22.619486,113.643696,09:00,17:00,0.0,0.5,1.0
117,天河公园,公园,23.134103,113.371801,06:30,22:00,0.0,3.0,3.5
118,广州艺术博物院,美术馆/艺术馆,23.149166,113.28707,09:00,17:00,0.0,0.5,1.0
119,疯狂的麦咭(广州体验馆),游乐园/体育娱乐,22.976506,113.308682,13:00,22:00,0.0,1.5,2.0
120,广东美术馆,美术馆/艺术馆,23.114039,113.313698,09:00,17:00,0.0,1.0,2.0
121,宝能广州国际体育演艺中心,游乐园/体育娱乐,23.181722,113.489011,08:30,17:00,0.0,1.0,2.0
122,保利世贸博览馆,博物馆/纪念馆,23.103718,113.372736,00:00,24:00,0.0,2.0,3.0
123,客村,商业街区,23.101735,113.325925,00:00,24:00,0.0,1.5,2.0
124,农民运动讲习所旧址,红色景点,23.13386,113.28287,09:00,17:30,0.0,2.5,3.0
125,广州华夏世嘉都市乐园,游乐园/体育娱乐,23.195674,113.600847,10:00,21:00,0.0,0.5,1.5
126,广州钧明欢乐世界,游乐园/体育娱乐,23.195372,113.599518,10:00,20:00,0.0,1.5,2.0
127,白江湖森林公园,公园,23.503464,113.915041,08:00,19:00,10.0,0.5,2.0
128,琶洲港澳客运口岸,人文景观,23.110248,113.373718,09:00,18:00,0.0,0.5,1.0
129,广州青少年科技馆,博物馆/纪念馆,23.148823,113.278079,09:30,17:00,0.0,2.0,3.0
130,广州文化公园,公园,23.115633,113.257337,07:00,21:30,0.0,2.0,3.0
131,爱群大厦,商业街区,23.115593,113.263623,00:00,24:00,0.0,2.5,4.0
132,广州翼·空港文旅小镇,文化旅游区,23.360714,113.299584,00:00,24:00,0.0,2.0,2.5
133,六榕寺,历史古迹,23.134141,113.266451,08:00,16:30,0.0,2.0,2.5
134,东山湖公园,公园,23.122361,113.298465,00:00,21:30,0.0,0.5,1.5
135,荔湾博物馆,博物馆/纪念馆,23.125681,113.242686,09:00,17:00,0.0,3.0,3.5
136,三元里人民抗英斗争纪念馆,红色景点,23.166898,113.266612,09:00,18:00,0.0,2.0,3.0
137,春阳台,人文景观,23.341129,113.095442,10:00,18:00,60.0,0.5,1.0
138,有马空间(琶洲店),游乐园/体育娱乐,23.103843,113.363278,00:00,24:00,0.0,1.0,2.0
139,琶洲塔,历史古迹,23.105305,113.382269,00:00,24:00,0.0,1.0,2.0
140,广东省凉茶博物馆,博物馆/纪念馆,23.185393,113.456405,09:00,17:00,0.0,3.0,3.5
141,珠江琶醍啤酒文化创意艺术区,文化旅游区,23.112566,113.346401,17:30,02:00,0.0,2.0,3.0
142,摩星岭,自然风光,23.188995,113.307707,00:00,24:00,0.0,2.5,4.0
143,五指山,自然风光,23.741667,113.81041,08:00,17:00,20.0,2.0,3.0
144,广州山谷国际旅游度假区,游乐园/体育娱乐,23.478783,113.597056,09:30,17:30,0.0,1.5,2.0
145,大夫山森林公园,公园,22.956343,113.315528,08:00,18:00,0.0,2.5,3.0
146,广东科学馆,博物馆/纪念馆,23.139717,113.2697,09:30,16:30,0.0,1.0,1.5
147,海珠湖公园,公园,23.078539,113.330994,08:00,20:00,0.0,0.5,1.5
148,沙面堂,历史古迹,23.112754,113.248153,00:00,24:00,0.0,3.0,3.5
149,天河体育中心,游乐园/体育娱乐,23.143232,113.331575,06:00,22:00,0.0,3.0,4.0
150,星海音乐厅,美术馆/艺术馆,23.113815,113.31217,00:00,20:30,0.0,1.0,1.5
151,珠江公园,公园,23.127287,113.347168,00:00,22:00,0.0,2.0,3.0
152,黄大仙祠,人文景观,23.101465,113.233717,00:00,17:30,0.0,3.0,4.0
153,九龙湖生态公园,公园,23.47724,113.425418,09:00,17:00,55.0,1.0,2.5
154,番禺儿童公园,游乐园/体育娱乐,22.967148,113.373662,08:00,21:30,0.0,1.5,3.0
155,越秀山,公园,23.144092,113.269578,00:00,21:00,0.0,3.0,3.5
156,广州国际金融中心-西塔,商业街区,23.123486,113.329659,10:00,22:00,0.0,3.0,3.5
157,天河路商圈,商业街区,23.147072,113.336053,00:00,24:00,0.0,0.5,1.0
158,广州鲁迅纪念馆,博物馆/纪念馆,23.130224,113.283364,09:00,17:00,0.0,1.0,2.0
159,三元宫,历史古迹,23.141037,113.269674,00:00,17:00,0.0,1.0,2.0
160,白云山国家级风景名胜区-玻璃桥,自然风光,23.176297,113.308671,08:30,17:00,0.0,2.0,2.5
161,南粤苑,人文景观,22.904203,113.295986,08:30,17:30,42.0,1.5,2.0
162,广东奥体中心,游乐园/体育娱乐,23.146083,113.418268,00:00,24:00,0.0,1.5,2.0
163,TaxiWay飞行中心(广州塔店),游乐园/体育娱乐,23.112219,113.331153,10:00,22:00,288.0,1.0,2.0
164,广东省古村落小洲村,历史古迹,23.068246,113.364821,00:00,24:00,0.0,3.0,4.0
165,马岭观花植物园,公园,23.48092,113.115289,09:00,17:30,79.9,2.0,2.5
166,流溪河,自然风光,23.309788,113.288276,00:00,24:00,0.0,0.5,1.0
167,天池,自然风光,22.988796,113.512643,00:00,24:00,0.0,1.5,2.0
168,七彩澳游世界,游乐园/体育娱乐,23.327309,113.703262,09:30,18:00,52.9,2.0,2.5
169,华林禅寺,历史古迹,23.122428,113.253216,00:00,17:00,0.0,2.0,2.5
170,帽峰山景区,自然风光,23.308856,113.463457,00:00,17:00,10.0,0.5,1.0
171,虎门大桥,人文景观,22.792189,113.614387,00:00,24:00,0.0,3.0,3.5
172,孙中山纪念馆,博物馆/纪念馆,23.102519,113.303485,08:00,17:00,0.0,1.0,2.0
173,白云山风景名胜区-山顶公园,公园,23.177947,113.306399,00:00,24:00,0.0,2.0,3.5
174,天龙溪自然风景区,自然风光,23.541753,113.256538,09:00,22:00,26.8,3.0,3.5
175,广州市麓湖公园,公园,23.154881,113.289439,00:00,24:00,0.0,0.5,1.5
176,南沙滨海湿地景区,自然风光,22.75522,113.624057,00:00,24:00,0.0,0.5,1.5
177,深中大桥,游乐园/体育娱乐,22.564071,113.653126,00:00,24:00,0.0,2.0,2.5
178,桂峰村,人文景观,23.814063,114.013896,00:00,24:00,0.0,1.0,2.0
179,大河马水上世界,游乐园/体育娱乐,23.21988,113.331571,10:00,18:00,55.0,2.0,3.5
180,南沙大角山海滨公园,公园,22.756166,113.625676,00:00,24:00,0.0,2.5,3.0
181,广州野恩动物乐园,游乐园/体育娱乐,23.142399,113.331733,10:00,22:00,0.0,1.5,2.0
182,南沙滨海泳场,游乐园/体育娱乐,22.766857,113.62641,09:00,18:00,0.0,1.0,2.0
183,珠江夜游(海心沙东区码头),游乐园/体育娱乐,23.116329,113.333457,16:00,22:30,0.0,2.5,3.0
184,南沙十九涌,人文景观,22.60589,113.65163,00:00,24:00,0.0,1.0,2.5
185,广州海事博物馆,博物馆/纪念馆,23.085411,113.508844,08:00,16:00,0.0,2.5,3.0
186,白鹅潭大湾区艺术中心,美术馆/艺术馆,23.107106,113.246052,09:00,17:00,0.0,2.5,4.0
187,生态设计小镇,其它,23.708562,113.727591,09:00,22:00,0.0,2.0,3.5
188,西坊大院文化创意园,文化旅游区,22.943144,113.36367,00:00,24:00,0.0,2.0,3.0
189,广州白云国际会议中心,商业街区,23.194991,113.286075,00:00,24:00,0.0,0.5,2.0
190,鱼珠码头,人文景观,23.099873,113.436123,00:00,23:30,0.0,2.0,3.0
191,正佳赛博运动空间,游乐园/体育娱乐,23.13786,113.333634,10:00,22:00,198.0,1.5,3.0
192,番禺欢乐森林,游乐园/体育娱乐,23.016062,113.446159,10:00,21:00,19.9,2.5,3.0
193,长隆欢乐世界-欢乐摩天轮,游乐园/体育娱乐,23.003416,113.336111,10:00,18:00,0.0,1.5,2.0
194,广东民间工艺博物馆,博物馆/纪念馆,23.133185,113.252021,09:00,18:00,0.0,0.5,1.5
195,天河大观湿地公园,公园,23.184698,113.429953,00:00,24:00,0.0,1.0,2.5
196,奈尔宝家庭中心(悦汇城店),游乐园/体育娱乐,23.155555,113.249688,10:00,21:00,0.0,2.5,3.0
197,火炉山森林公园,公园,23.187005,113.396663,00:00,24:00,0.0,1.0,2.0
198,南沙慧谷超级堤,公园,22.747254,113.612978,00:00,24:00,0.0,1.0,1.5
199,百花园(三堂路店),公园,22.944376,113.367285,11:00,14:00,0.0,2.0,3.0
200,欧洲风情街,商业街区,22.929721,113.361494,00:00,24:00,0.0,2.0,3.0
201,碧水峡漂流,游乐园/体育娱乐,23.684252,113.770997,13:30,16:30,35.0,0.5,1.5
202,广州亚运城综合体育馆,游乐园/体育娱乐,22.947651,113.488521,09:00,12:00,0.0,2.0,3.5
203,怀圣寺,历史古迹,23.129071,113.265427,00:00,24:00,0.0,2.0,2.5
204,广州艺术博物院(新馆),美术馆/艺术馆,23.106824,113.332724,09:00,17:00,0.0,0.5,1.5
205,孙中山文献馆,博物馆/纪念馆,23.130477,113.277149,09:30,17:30,0.0,1.0,1.5
206,广东花都湖国家湿地公园,公园,23.387857,113.23775,06:30,22:00,0.0,1.0,1.5
207,夜上海(时尚天河商业广场店),商业街区,23.139698,113.331829,10:00,22:00,0.0,0.5,1.0
208,广州起义烈士陵园,红色景点,23.135765,113.292235,00:00,21:00,0.0,0.5,1.5
209,深井古村,历史古迹,23.082073,113.415391,00:00,24:00,0.0,0.5,1.0
210,广州极动公园,游乐园/体育娱乐,23.109833,113.42645,10:00,21:00,0.0,2.0,3.5
211,派潭镇,自然风光,23.496063,113.790665,00:00,24:00,0.0,3.0,3.5
212,安华汇欢乐舟主题乐园,游乐园/体育娱乐,23.223415,113.303516,10:00,19:00,30.0,0.5,2.0
213,海心沙亚运公园-海心沙广场,公园,23.119151,113.327574,00:00,24:00,0.0,2.0,2.5
214,OMG网红街,商业街区,23.045464,113.323994,09:00,22:00,0.0,3.0,4.0
215,荔湖公园,公园,23.247055,113.818367,00:00,24:00,0.0,1.5,3.0
216,广州悬空玻璃艺术馆（天河旗舰店）,美术馆/艺术馆,23.142293,113.330878,10:00,22:00,39.9,2.0,3.0
217,广州起义纪念馆,红色景点,23.130345,113.270873,09:00,17:30,0.0,2.5,4.0
218,石头记矿物园,公园,23.406978,113.167616,09:00,18:00,55.0,1.0,2.0
219,广东外事博物馆,博物馆/纪念馆,23.112228,113.254694,09:00,11:30,0.0,1.0,2.0
220,马尔代夫欢乐岛,游乐园/体育娱乐,23.136176,113.683563,09:00,23:00,0.0,2.5,3.0
221,宝趣玫瑰世界,游乐园/体育娱乐,23.627666,113.589991,09:00,18:00,45.0,2.0,3.0
222,王子山森林公园,公园,23.573497,113.222987,00:00,17:00,0.0,2.0,2.5
223,沙面岛-江边广场,人文景观,23.111167,113.25089,00:00,24:00,0.0,0.5,1.0
224,广东中医药博物馆,博物馆/纪念馆,23.06527,113.41211,09:00,16:45,0.0,0.5,2.0
225,林则徐纪念园,红色景点,23.118215,113.293276,00:00,24:00,0.0,1.0,2.5
226,神农草堂中医药博物馆,博物馆/纪念馆,23.202979,113.344502,08:30,12:00,0.0,1.0,1.5
227,广州独角兽星空艺术馆,美术馆/艺术馆,23.128956,113.273693,10:00,22:00,39.8,0.5,1.5
228,万博中心,商业街区,23.013736,113.349203,09:00,17:30,0.0,0.5,2.0
229,增江画廊,自然风光,23.262268,113.832543,00:00,24:00,0.0,2.0,2.5
230,曼古园,人文景观,23.408068,113.164816,00:00,22:00,0.0,1.5,2.0
231,黄埔军校史迹第一展馆,红色景点,23.092223,113.432175,09:00,17:00,0.0,3.0,3.5
232,四海马术,游乐园/体育娱乐,23.027175,113.454251,09:30,11:00,0.0,3.0,4.0
233,颠倒博物馆(捷登都会店),博物馆/纪念馆,23.13211,113.27208,10:00,21:00,0.0,2.5,3.0
234,广州近代史博物馆,博物馆/纪念馆,23.134641,113.289774,09:00,17:30,0.0,1.0,2.5
235,南平静修小镇,文化旅游区,23.556879,113.726403,00:00,24:00,0.0,2.0,3.0
236,南越国水关遗址(光明广场),历史古迹,23.128582,113.273819,14:00,18:00,0.0,2.0,2.5
237,天主教广州教区露德圣母堂,历史古迹,23.113254,113.254233,06:00,17:00,0.0,3.0,3.5
238,广州番禺直升机观光游览区,游乐园/体育娱乐,22.971341,113.52181,09:00,21:00,499.0,2.0,2.5
239,珠江夜游省总码头,人文景观,23.117493,113.268404,17:00,21:30,0.0,0.5,1.0
240,广州古城墙,历史古迹,23.142631,113.269913,00:00,22:00,0.0,1.0,2.5
241,广州名人蜡像馆,博物馆/纪念馆,23.111322,113.331595,09:30,22:30,0.0,2.0,3.0
242,海幢寺,历史古迹,23.111474,113.265451,07:00,17:00,0.0,0.5,1.5
243,韩江屋,历史古迹,23.034802,113.371985,09:00,19:00,0.0,1.5,2.0
244,海蚀洞,自然风光,23.113316,113.607356,00:00,24:00,0.0,1.5,3.0
245,中国共产党第三次全国代表大会会址纪念馆,红色景点,23.125053,113.302578,09:00,17:30,0.0,0.5,1.5
246,罗马帝国的艺术-那不勒斯国立考古博物馆藏文物精品展,博物馆/纪念馆,23.120486,113.332975,09:00,17:00,0.0,1.0,2.0
247,创客公园,公园,23.071633,113.297841,00:00,24:00,0.0,0.5,2.0
248,乘船探索秘境,自然风光,23.030921,113.28094,11:00,17:00,0.0,3.0,3.5
249,中山公园,公园,23.079364,113.423999,00:00,24:00,0.0,2.0,3.5
250,中央演艺广场,人文景观,23.005159,113.337564,00:00,24:00,0.0,0.5,1.0
251,广州民俗博物馆,博物馆/纪念馆,23.392541,113.198186,09:00,17:00,0.0,3.0,3.5
252,紫泥堂,人文景观,22.897389,113.291907,00:00,24:00,0.0,1.0,2.0
253,珠江夜游会展中心码头,游乐园/体育娱乐,23.110572,113.369801,10:00,22:00,0.0,2.5,3.0
254,广州不可思议运动街区,游乐园/体育娱乐,23.125892,113.27646,10:00,22:00,0.0,2.5,3.0
255,大吉沙,人文景观,23.087628,113.460518,00:00,24:00,0.0,3.0,3.5
256,蝴蝶谷,游乐园/体育娱乐,23.560945,113.231813,08:30,18:00,0.0,2.5,4.0
257,增城区正果镇正果老街景区,文化旅游区,23.423866,113.901193,00:00,24:00,0.0,1.5,3.0
258,花山小镇,人文景观,23.446089,113.291138,09:00,22:00,0.0,2.5,3.0
259,黄沙码头,人文景观,23.112267,113.246886,06:00,22:00,0.0,2.0,3.0
260,黄山鲁森林公园,公园,22.783267,113.577166,00:00,16:30,0.0,0.5,2.0
261,故乡里民俗文化村,文化旅游区,23.489996,113.0702,09:00,17:00,58.0,1.0,2.0
262,探洞工场(六元素旗舰店),游乐园/体育娱乐,23.102275,113.378826,10:00,21:00,0.0,0.5,1.0
263,卡洛卡太空森林亲子乐园,游乐园/体育娱乐,23.434425,113.24712,10:00,20:00,0.0,2.5,3.0
264,广州大学城体育中心,游乐园/体育娱乐,23.0609,113.397292,14:00,22:00,0.0,0.5,1.0
265,十八罗汉山森林公园,公园,22.792373,113.412964,06:30,18:30,0.0,0.5,1.5
266,黄埔军事主题园,游乐园/体育娱乐,23.078618,113.411678,09:00,17:00,0.0,1.0,2.0
267,仁威祖庙,历史古迹,23.128977,113.242168,08:00,17:00,0.0,2.0,3.5
268,鸭洞河小溪,自然风光,23.70448,113.733508,00:00,24:00,0.0,2.5,3.0
269,广州美术馆(新馆),美术馆/艺术馆,23.106533,113.332614,09:00,17:30,0.0,0.5,1.0
270,灵山岛尖,自然风光,22.778073,113.523847,00:00,24:00,0.0,1.5,2.0
271,留耕堂,历史古迹,22.910211,113.340343,00:00,17:30,0.0,2.5,3.0
272,洪秀全故居,红色景点,23.423379,113.179413,09:00,17:00,0.0,1.5,3.0
273,西郊游泳场,游乐园/体育娱乐,23.128977,113.234057,07:00,21:30,34.8,1.0,2.0
274,广州华侨博物馆,博物馆/纪念馆,23.119256,113.271033,09:30,17:00,0.0,3.0,4.0
275,蒲洲花园,公园,22.768203,113.6226,00:00,19:00,0.0,3.0,3.5
276,风云岭森林公园,公园,23.54756,113.570755,00:00,24:00,0.0,0.5,2.0
277,广州隧道博物馆,博物馆/纪念馆,22.764352,113.55845,10:00,16:30,0.0,0.5,2.0
278,孙中山先生故居,红色景点,23.092745,113.431038,09:00,17:00,0.0,0.5,1.0
279,港头村古村落,历史古迹,23.428573,113.401361,00:00,24:00,0.0,2.0,3.5
280,广州chi K11艺术空间,美术馆/艺术馆,23.123892,113.332952,10:00,21:30,0.0,1.0,2.0
281,中华全国总工会旧址,红色景点,23.125529,113.284248,09:00,17:30,0.0,0.5,1.0
282,广州白云湖公园,公园,23.234257,113.243843,00:00,21:00,0.0,1.0,2.0
283,广州体育馆,游乐园/体育娱乐,23.187879,113.284057,09:00,22:00,0.0,1.0,2.5
284,朗头村,历史古迹,23.345045,113.094007,00:00,24:00,0.0,1.5,2.0
285,广州雕塑公园,公园,23.156454,113.27673,00:00,24:00,0.0,1.5,3.0
286,奥咖HOKA光影剧场,游乐园/体育娱乐,23.145414,113.313542,09:00,16:00,35.0,2.0,3.0
287,人民公园,公园,23.133405,113.270815,00:00,24:00,0.0,0.5,1.0
288,哈利波特(海珠新都荟店),游乐园/体育娱乐,23.07911,113.298414,10:00,22:00,0.0,1.0,2.0
289,南越国宫署遗址,历史古迹,23.133223,113.276322,09:00,17:00,0.0,2.0,3.5
290,滨海公园,公园,22.756007,113.625699,00:00,24:00,0.0,0.5,1.0
291,天湖旅游风景区,自然风光,23.655576,113.636903,09:00,17:00,25.0,0.5,1.0
292,萝岗香雪公园,公园,23.189269,113.533589,00:00,24:00,0.0,0.5,1.0
293,广州二龙山花园,公园,23.359062,113.736507,09:00,17:30,0.0,1.5,2.0
294,庙前夜市,商业街区,23.12929,113.300837,18:00,24:00,0.0,2.0,3.0
295,赤岗塔,历史古迹,23.107593,113.329276,00:00,24:00,0.0,1.0,2.0
296,广州融创大马戏-奇幻秘境,游乐园/体育娱乐,23.43547,113.246764,10:00,20:00,0.0,2.0,2.5
297,LPS在地公园,公园,23.125749,113.303105,11:00,20:00,0.0,2.0,3.5
298,广州市城市规划展览中心,博物馆/纪念馆,23.197644,113.284064,09:00,17:00,0.0,2.0,3.0
299,沿江路酒吧街,商业街区,23.039826,113.317041,00:00,24:00,0.0,1.0,2.5
300,观龙岛,自然风光,22.909307,113.490148,00:00,24:00,0.0,2.0,2.5
301,西关大宅门,历史古迹,23.124206,113.242879,00:00,24:00,0.0,0.5,2.0
302,广州体育文化博物馆,博物馆/纪念馆,23.144373,113.328775,09:00,17:00,0.0,2.5,4.0
303,考拉广场,商业街区,23.006163,113.321381,00:00,24:00,0.0,2.5,4.0
304,花都湿地公园,公园,23.394674,113.262518,06:00,22:00,0.0,1.0,2.5
305,黄埔村,历史古迹,23.100133,113.404609,00:00,24:00,0.0,1.0,2.0
306,北回归线公园,公园,23.444851,113.493292,00:00,24:00,0.0,3.0,3.5
307,珠江夜游(太古仓码头),人文景观,23.094724,113.258941,09:00,22:00,108.0,1.5,2.0
308,罗洞工匠小镇,人文景观,23.502871,113.624054,09:00,17:00,0.0,2.0,3.5
309,詹天佑故居纪念馆,博物馆/纪念馆,23.11889,113.246014,10:00,17:30,0.0,3.0,3.5
310,基督教救主堂,人文景观,23.126099,113.277701,09:00,17:00,0.0,0.5,1.0
311,马鞍山公园,公园,23.400687,113.244103,00:00,24:00,0.0,0.5,1.0
312,儿童天地展馆,游乐园/体育娱乐,23.045277,113.368971,09:30,16:30,0.0,2.0,2.5
313,邓世昌纪念馆,博物馆/纪念馆,23.107473,113.266899,09:00,17:00,0.0,3.0,3.5
314,艾米稻香小镇,文化旅游区,23.553413,113.566048,00:00,24:00,0.0,0.5,1.0
315,桃花小镇,文化旅游区,23.497222,113.621667,00:00,23:00,0.0,0.5,1.0
316,滴水岩森林公园,公园,22.911546,113.32154,00:00,18:00,0.0,2.0,3.0
317,广州城市双层观光巴士,游乐园/体育娱乐,23.121065,113.274234,09:30,21:30,50.0,2.0,2.5
318,大岭村,人文景观,22.990928,113.483917,00:00,24:00,0.0,1.0,2.0
319,1978文化创意产业园,文化旅游区,23.302686,113.850166,00:00,24:00,0.0,2.0,2.5
320,一方乐田都市农园,公园,23.079113,113.310354,09:30,22:30,37.4,3.0,4.0
321,龟岗民国建筑群,历史古迹,23.127913,113.300049,00:00,24:00,0.0,1.0,2.5
322,南沙欢乐世界,游乐园/体育娱乐,22.905648,113.403675,10:00,19:00,0.0,2.0,3.0
323,岭南金融博物馆,博物馆/纪念馆,23.130111,113.273057,09:00,17:00,0.0,1.0,2.0
324,花果山公园,公园,23.395248,113.225884,00:00,24:00,0.0,1.0,1.5
325,广州8号艺术晒谷场,人文景观,23.033539,113.438048,00:00,24:00,0.0,0.5,1.0
326,笑平园休闲科教农场,公园,23.469808,113.192439,09:30,19:00,24.9,2.0,3.5
327,广州翔云跳伞俱乐部(增城基地),游乐园/体育娱乐,23.281304,113.82263,00:00,23:30,0.0,2.0,3.0
328,海傍水乡,自然风光,22.948095,113.472611,00:00,24:00,0.0,2.5,3.0
329,石基,历史古迹,22.956489,113.432973,00:00,24:00,0.0,1.5,2.0
330,桃花涧,自然风光,23.197683,113.313586,00:00,24:00,0.0,2.5,3.0
331,晓港公园,公园,23.102924,113.287264,00:00,21:00,0.0,2.0,3.5
332,新塘公园,公园,23.125106,113.624689,00:00,24:00,0.0,0.5,1.0
333,南平村,红色景点,23.554016,113.723738,00:00,24:00,0.0,2.0,3.0
334,洲头咀公园,公园,23.107862,113.252296,00:00,24:00,0.0,2.0,3.0
335,沙面街文化站,文化旅游区,23.113885,113.251112,09:30,11:30,0.0,1.0,2.5
336,美华航空航天科普基地,游乐园/体育娱乐,23.422687,113.25454,08:00,18:00,0.0,0.5,1.5
337,黄埔公园,公园,23.104145,113.458325,00:00,21:00,0.0,0.5,2.0
338,海珠桥,历史古迹,23.117869,113.273947,00:00,24:00,0.0,3.0,4.0
